City,Cloudiness,Country,Date,Humidity,Latitude,Longitude,Temperature,Wind Speed
Novo Aripuanã,28,BR,1589680438,94,-5.12,-60.38,74.98,1.01
Barrow,90,US,1589680439,79,71.29,-156.79,26.6,9.17
Aksarka,100,RU,1589680439,95,66.56,67.8,34.18,4.21
Paignton,20,GB,1589680439,8,50.44,-3.57,48.0,1.99
Walvis Bay,0,NA,1589680439,71,-22.96,14.51,57.2,3.36
Perth,97,AU,1589680387,59,-31.93,115.83,64.0,3.36
Carndonagh,100,IE,1589680440,93,55.25,-7.27,47.21,8.97
Atambua,13,ID,1589680440,66,-9.11,124.89,83.91,3.0
George Town,20,MY,1589680440,88,5.41,100.34,82.4,4.7
Rikitea,100,PF,1589680441,85,-23.12,-134.97,77.09,10.36
Acapetahua,75,MX,1589680441,74,15.28,-92.7,84.2,6.93
Maamba,0,ZM,1589680441,45,-17.37,27.15,57.25,1.52
Port Elizabeth,3,ZA,1589680442,100,-33.92,25.57,46.4,3.36
Ibipeba,84,BR,1589680442,86,-11.64,-42.01,70.03,3.27
Busselton,100,AU,1589680442,47,-33.65,115.33,61.0,9.66
Auki,16,SB,1589680442,65,-8.77,160.7,87.75,3.44
Bambous Virieux,20,MU,1589680443,94,-20.34,57.76,72.0,4.7
Aklavik,90,CA,1589680443,79,68.22,-135.01,24.8,11.41
Cardston,75,CA,1589680223,31,49.2,-113.3,64.4,14.99
Butaritari,2,KI,1589680443,77,3.07,172.79,83.98,15.17
Bluff,15,NZ,1589680443,77,-46.6,168.33,53.85,8.72
Punta Arenas,75,CL,1589680387,93,-53.15,-70.92,39.2,12.75
Sorong,0,ID,1589680444,68,-0.88,131.25,86.36,0.72
Albany,77,US,1589680314,58,42.6,-73.97,62.01,4.5
Nikolskoye,75,RU,1589680444,86,59.7,30.79,39.99,11.18
Ancud,90,CL,1589680406,87,-41.87,-73.82,54.0,5.82
Hithadhoo,100,MV,1589680445,77,-0.6,73.08,85.24,21.03
Arraial do Cabo,30,BR,1589680445,79,-22.97,-42.03,72.34,11.1
Mataura,0,NZ,1589680446,63,-46.19,168.86,56.19,0.87
Paamiut,100,GL,1589680446,91,61.99,-49.67,38.62,12.59
Ushuaia,75,AR,1589680352,80,-54.8,-68.3,41.0,12.75
Viljoenskroon,0,ZA,1589680446,43,-27.21,26.95,49.21,3.36
Chokurdakh,0,RU,1589680447,97,70.63,147.92,29.71,10.29
Finca Blanco,100,PA,1589680448,100,8.38,-82.87,66.99,3.96
Hermanus,32,ZA,1589680449,81,-34.42,19.23,54.0,2.59
Nurota,39,UZ,1589680449,63,40.56,65.69,62.6,11.41
Zhigansk,100,RU,1589680449,78,66.77,123.37,44.64,10.85
Nouadhibou,26,MR,1589680449,72,20.93,-17.03,66.2,20.8
Hilo,90,US,1589680450,58,19.73,-155.09,82.4,11.41
Brae,40,GB,1589680450,70,60.4,-1.35,42.8,23.04
Kungur,82,RU,1589680450,80,57.44,56.96,42.82,4.34
Mehamn,100,NO,1589680450,95,71.04,27.85,32.97,9.22
Borovoy,2,RU,1589680451,77,55.43,86.08,62.6,4.47
Almaznyy,0,RU,1589680451,93,48.04,40.05,41.0,2.24
Mitú,100,CO,1589680451,97,1.2,-70.17,73.04,1.72
Leningradskiy,100,RU,1589680452,96,69.38,178.42,30.15,6.06
Esperance,40,AU,1589680452,72,-33.87,121.9,59.0,10.29
Cape Town,6,ZA,1589680181,93,-33.93,18.42,44.6,3.36
Faanui,32,PF,1589680452,73,-16.48,-151.75,82.09,6.44
Saint Anthony,90,US,1589680452,87,45.02,-93.22,55.99,9.17
Yellowknife,75,CA,1589680379,78,62.46,-114.35,32.0,14.99
Constitución,0,CL,1589680234,80,-35.33,-72.42,58.5,8.84
Cabo San Lucas,5,MX,1589680426,41,22.89,-109.91,82.99,5.82
Bolkhov,21,RU,1589680453,95,53.44,36.0,40.21,9.46
Port Alfred,83,ZA,1589680454,69,-33.59,26.89,55.0,6.76
Tarabuco,0,BO,1589680454,65,-19.17,-64.92,42.73,1.95
Zharkent,100,KZ,1589680454,50,44.16,80.0,65.84,4.03
Saint-Joseph,40,RE,1589680454,78,-21.37,55.62,71.6,6.93
Hokitika,0,NZ,1589680455,59,-42.72,170.97,56.21,3.24
Puerto Ayora,83,EC,1589680455,91,-0.74,-90.35,75.99,1.01
Bandarbeyla,0,SO,1589680455,81,9.49,50.81,82.42,23.09
Ibrā’,0,OM,1589680455,59,22.69,58.53,75.9,2.98
Semporna,20,MY,1589680456,79,4.48,118.61,87.8,3.36
Santa Vitória do Palmar,0,BR,1589680456,71,-33.52,-53.37,62.69,12.21
Sayyan,0,YE,1589680456,33,15.17,44.32,60.84,7.49
Katsuura,20,JP,1589680456,64,35.13,140.3,80.01,10.29
Lebyazh'ye,100,RU,1589680457,77,55.27,66.49,59.0,8.03
Saint Paul Harbor,20,US,1589680457,76,57.79,-152.41,51.8,10.29
Ayagoz,94,KZ,1589680457,44,47.97,80.44,66.2,2.89
Pevek,0,RU,1589680457,90,69.7,170.31,34.39,4.23
Hearst,100,CA,1589680458,97,49.68,-83.67,39.79,6.08
Makakilo City,1,US,1589680458,38,21.35,-158.09,89.6,6.93
Anaconda,1,US,1589680458,27,46.13,-112.94,62.6,11.41
Namatanai,13,PG,1589680458,69,-3.67,152.43,86.88,7.63
Los Llanos de Aridane,90,ES,1589680459,55,28.66,-17.92,66.2,9.17
Yei,0,SS,1589680459,88,4.09,30.68,67.15,3.02
Vilyuysk,100,RU,1589680459,51,63.76,121.62,59.7,4.52
Panino,85,RU,1589680459,61,51.65,40.13,50.0,6.71
Thompson,75,CA,1589680460,30,55.74,-97.86,55.4,5.82
Rāvar,0,IR,1589680460,23,31.27,56.81,69.66,1.07
Saint-Pierre,40,RE,1589680460,78,-21.34,55.48,71.6,6.93
Hamilton,1,US,1589680213,83,39.18,-84.53,72.0,3.36
Ustrzyki Dolne,82,PL,1589680461,83,49.43,22.59,42.01,4.05
Oxford,7,GB,1589680200,87,51.75,-1.26,46.0,1.12
Cherskiy,0,RU,1589680461,39,68.75,161.3,53.85,10.98
Tuktoyaktuk,90,CA,1589680461,86,69.45,-133.04,26.6,14.99
Demba,67,CD,1589680462,88,-5.51,22.27,69.49,2.64
Tegul'det,28,RU,1589680462,68,57.31,88.17,58.51,8.37
Broken Hill,0,AU,1589680462,55,-31.95,141.43,60.8,6.93
Te Anau,0,NZ,1589680462,56,-45.42,167.72,53.85,0.89
Eureka,100,US,1589680463,71,40.8,-124.16,59.0,1.99
Mar del Plata,20,AR,1589680351,76,-38.0,-57.56,66.0,6.93
Vaini,75,TO,1589680463,69,-21.2,-175.2,78.8,5.82
Tabriz,20,IR,1589680464,54,38.08,46.29,59.0,4.7
Puerto Maldonado,25,PE,1589680464,78,-12.6,-69.18,69.98,1.77
Norton Shores,75,US,1589680400,63,43.17,-86.26,64.4,8.05
Kapaa,40,US,1589680464,74,22.08,-159.32,80.6,13.87
Marang,20,MY,1589680465,83,5.21,103.21,84.2,5.82
Castro,0,BR,1589680465,56,-24.79,-50.01,50.99,0.85
Sechura,0,PE,1589680465,71,-5.56,-80.82,71.4,14.88
Isangel,77,VU,1589680465,67,-19.55,169.27,76.5,12.08
Ponta do Sol,75,PT,1589680465,55,32.67,-17.1,62.6,5.82
Ribeira Grande,98,PT,1589680466,89,38.52,-28.7,62.69,8.39
Hyères,99,FR,1589680466,93,43.12,6.12,59.0,3.36
Kavaratti,95,IN,1589680466,79,10.57,72.64,85.3,14.85
Port Hardy,90,CA,1589680467,87,50.7,-127.42,53.6,14.99
Hobart,75,AU,1589680387,55,-42.88,147.33,60.8,6.93
Dhidhdhoo,100,MV,1589680467,77,6.88,73.1,85.42,19.71
Seoul,75,KR,1589680377,82,37.57,126.98,68.0,3.36
Khatanga,0,RU,1589680467,83,71.97,102.5,39.94,16.35
New Norfolk,10,AU,1589680468,78,-42.78,147.06,59.0,4.12
Port Keats,62,AU,1589680468,43,-14.25,129.55,88.12,13.06
Marina,1,US,1589680468,52,36.68,-121.8,69.8,10.29
Guerrero Negro,0,MX,1589680469,77,27.98,-114.06,64.38,15.35
Mezen',3,RU,1589680469,89,65.85,44.24,36.45,3.71
Carballo,0,ES,1589680469,87,43.21,-8.69,53.01,2.24
Ōhara,20,JP,1589680470,69,35.25,140.38,80.01,2.24
Dikson,43,RU,1589680470,97,73.51,80.55,31.42,10.89
Kamenka,0,RU,1589680470,93,51.32,42.77,41.0,1.01
Santa Rosa,20,PH,1589680470,70,14.31,121.11,91.0,8.05
Maneromango,0,TZ,1589680471,100,-7.2,38.78,65.34,3.85
Nhulunbuy,75,AU,1589680471,74,-12.23,136.77,80.6,11.41
Qaanaaq,0,GL,1589680471,90,77.48,-69.36,23.77,0.54
Jamestown,1,US,1589680471,62,42.1,-79.24,59.0,6.93
Chui,0,UY,1589680472,71,-33.7,-53.46,62.11,12.75
Sur,0,OM,1589680472,62,22.57,59.53,80.98,3.15
Lüderitz,0,NA,1589680472,29,-26.65,15.16,66.2,6.93
São Filipe,11,CV,1589680472,81,14.9,-24.5,72.16,8.48
Saint-Philippe,40,RE,1589680472,78,-21.36,55.77,71.6,6.93
Rio Grande,0,BR,1589680265,69,-32.03,-52.1,62.01,14.47
Makokou,100,GA,1589680473,97,0.57,12.86,71.06,1.83
Gáldar,75,ES,1589680473,68,28.15,-15.65,66.99,17.22
Kaitangata,0,NZ,1589680474,64,-46.28,169.85,55.06,1.57
Beringovskiy,98,RU,1589680474,96,63.05,179.32,32.18,14.38
Rāy,40,IN,1589680474,57,23.68,85.05,80.6,3.36
Berlevåg,100,NO,1589680474,95,70.86,29.09,32.97,7.2
San Patricio,5,MX,1589680475,78,19.22,-104.7,78.8,11.41
Pisco,1,PE,1589680476,88,-13.7,-76.22,64.4,9.17
Erzin,0,TR,1589680476,60,36.96,36.2,77.0,7.0
Avarua,40,CK,1589680476,69,-21.21,-159.78,82.4,14.99
Srandakan,29,ID,1589680477,75,-7.94,110.25,84.67,12.39
Muravlenko,0,RU,1589680477,64,63.79,74.52,49.1,6.76
Tiznit Province,56,MA,1589680477,83,29.58,-9.5,57.15,3.51
Aquiraz,40,BR,1589680477,88,-3.9,-38.39,77.0,4.79
Shimoda,75,JP,1589680478,83,34.67,138.95,70.0,3.36
Hong Kong,4,HK,1589680192,74,22.29,114.16,88.0,5.01
Marystown,84,CA,1589680478,83,47.17,-55.15,37.35,5.93
Bethel,1,US,1589680464,63,41.37,-73.41,61.0,3.4
Bosaso,0,SO,1589680479,58,11.28,49.18,87.42,1.59
Ulaangom,100,MN,1589680479,39,49.98,92.07,64.98,2.91
Bredasdorp,12,ZA,1589680479,86,-34.53,20.04,39.2,3.36
Callaway,1,US,1589680479,83,30.15,-85.57,75.2,6.93
Ponta Delgada,75,PT,1589680381,93,37.73,-25.67,62.6,8.05
Emerald,0,AU,1589680480,47,-23.53,148.17,75.2,10.29
Niamey,71,NE,1589680480,38,13.51,2.11,91.4,6.93
Nautla,72,MX,1589680480,77,20.22,-96.78,83.17,9.6
Araouane,0,ML,1589680481,17,18.9,-3.53,84.15,11.83
Fes,20,MA,1589680481,93,34.04,-5.0,51.8,6.93
Zheleznodorozhnyy,96,RU,1589680481,70,55.75,38.0,48.99,8.68
Elverum,46,NO,1589680481,75,60.88,11.56,34.0,1.99
Kumul,96,CN,1589680482,18,42.8,93.45,85.1,12.84
Ilhéus,93,BR,1589680482,91,-14.79,-39.05,73.42,1.48
Nshamba,74,TZ,1589680483,100,-1.8,31.55,61.12,5.59
Kjøllefjord,100,NO,1589680483,94,70.95,27.35,33.19,9.37
Tazovsky,100,RU,1589680483,98,67.47,78.7,35.83,4.52
Alcañiz,66,ES,1589680484,73,41.05,-0.13,55.99,10.0
Balad,0,IQ,1589680484,18,34.02,44.15,79.36,3.74
Geraldton,64,AU,1589680484,37,-28.77,114.6,68.0,5.82
Tasiilaq,60,GL,1589680485,69,65.61,-37.64,35.6,9.17
Mouila,82,GA,1589680485,94,-1.87,11.06,75.36,1.1
Grindavik,0,IS,1589680485,65,63.84,-22.43,41.0,19.46
Bryan,40,US,1589680485,83,30.67,-96.37,71.6,6.93
Camopi,97,GF,1589680486,97,3.17,-52.32,74.1,3.02
Kieta,4,PG,1589680486,71,-6.22,155.63,86.27,5.7
Arlit,90,NE,1589680486,15,18.74,7.39,87.21,7.49
Gouré,0,NE,1589680486,32,13.98,10.27,81.07,4.61
Langsa,98,ID,1589680486,87,4.47,97.97,80.83,0.81
Makkah al Mukarramah,0,SA,1589680450,32,21.43,39.83,88.23,4.21
Gizo Government Station,86,SB,1589680487,69,-8.1,156.84,85.64,2.1
Tiksi,100,RU,1589680487,98,71.69,128.87,27.19,8.23
Ilhabela,26,BR,1589680487,81,-23.78,-45.36,67.62,2.24
Nishihara,75,JP,1589680488,83,26.18,127.76,82.4,9.17
Codrington,0,AU,1589680488,53,-38.27,141.97,59.25,5.59
Nome,90,US,1589680230,70,64.5,-165.41,46.4,4.7
Haines Junction,99,CA,1589680488,41,60.75,-137.51,58.26,4.72
Mormugao,73,IN,1589680489,84,15.4,73.8,83.53,10.16
Okhotsk,93,RU,1589680489,79,59.38,143.3,39.13,5.17
Vigrestad,75,NO,1589680489,81,58.57,5.7,42.8,13.87
Maceió,40,BR,1589680284,94,-9.67,-35.74,75.2,2.24
Kadoshkino,0,RU,1589680490,90,54.03,44.42,39.69,8.05
Bose,100,IT,1589680491,98,45.46,8.01,59.0,3.06
Karratha,73,AU,1589680491,17,-20.74,116.85,77.86,18.7
Provideniya,100,RU,1589680492,63,64.38,-173.3,41.76,5.5
Port-Gentil,98,GA,1589680492,83,-0.72,8.78,82.13,6.82
Longyearbyen,7,SJ,1589680492,69,78.22,15.64,33.8,10.29
Gweta,0,BW,1589680492,35,-20.18,25.23,58.35,9.53
Pearl,40,US,1589680493,83,32.27,-90.13,73.99,11.41
Norman Wells,75,CA,1589680493,54,65.28,-126.83,30.2,21.92
Nizwá,0,OM,1589680214,38,22.93,57.53,78.6,2.98
Willowmore,0,ZA,1589680494,51,-33.29,23.49,46.56,3.0
Alushta,1,UA,1589680494,77,44.67,34.42,54.3,2.66
Kariba,8,ZW,1589680494,71,-16.52,28.8,59.76,2.93
Safford,1,US,1589680494,10,32.83,-109.71,93.2,14.99
Lebu,63,CL,1589680495,96,-37.62,-73.65,57.02,4.27
Peniche,0,PT,1589680231,89,39.36,-9.38,60.01,1.01
Lagunas,99,PE,1589680495,85,-5.23,-75.68,74.62,1.34
Iqaluit,40,CA,1589680495,97,63.75,-68.51,32.0,1.25
Hurghada,63,EG,1589680287,58,27.26,33.81,82.4,3.36
Maputo,3,MZ,1589680496,81,-25.97,32.59,64.0,1.99
George,0,ZA,1589680496,93,-33.96,22.46,48.2,2.24
Chapais,1,CA,1589680497,60,49.78,-74.85,42.8,4.7
Mount Isa,0,AU,1589680497,21,-20.73,139.5,80.6,13.87
Havre-St-Pierre,90,CA,1589680497,75,50.23,-63.6,41.0,5.82
Arcos,42,BR,1589680497,91,-20.28,-45.54,61.59,3.85
Mabini,40,PH,1589680498,79,15.6,120.98,84.2,6.93
Torbay,90,CA,1589680498,98,47.67,-52.73,35.01,5.82
Daşoguz,1,TM,1589680498,67,41.84,59.97,62.6,4.7
Carnarvon,69,AU,1589680498,19,-24.87,113.63,77.36,11.61
Trollhättan Municipality,10,SE,1589680499,70,58.23,12.42,44.6,16.11
Bathsheba,75,BB,1589680499,74,13.22,-59.52,82.4,23.04
Bonavista,79,CA,1589680500,87,48.65,-53.11,34.0,7.0
Subtanjalla,0,PE,1589680500,88,-14.02,-75.76,64.4,9.17
Saskylakh,62,RU,1589680500,97,71.92,114.08,33.42,3.85
Tutóia,100,BR,1589680500,88,-2.76,-42.27,78.17,5.66
Puerto del Rosario,20,ES,1589680501,72,28.5,-13.86,66.2,12.75
Dawlatabad,0,AF,1589680501,33,36.41,64.91,70.83,2.57
Upata,81,VE,1589680501,86,8.01,-62.4,79.0,5.99
Saint-Louis,0,SN,1589680502,27,16.33,-15.0,80.82,14.47
Kahului,40,US,1589680502,48,20.89,-156.47,87.8,23.04
Abangay,38,PH,1589680502,62,10.97,122.65,89.65,2.55
Kuito,0,AO,1589680502,70,-12.38,16.93,51.15,3.4
Mizdah,0,LY,1589680502,20,31.45,12.98,77.22,9.78
Atuona,11,PF,1589680503,78,-9.8,-139.03,81.0,17.34
Valparaíso,0,CL,1589680486,87,-33.04,-71.63,55.4,10.27
Chumikan,87,RU,1589680503,68,54.72,135.31,43.9,11.3
Natitingou,100,BJ,1589680503,75,10.3,1.38,78.01,5.17
Kavieng,5,PG,1589680503,64,-2.57,150.8,86.45,7.65
Izhma,98,RU,1589680504,60,65.01,53.91,43.61,4.85
Fairbanks,20,US,1589680290,24,64.84,-147.72,55.4,14.99
Garissa,23,KE,1589680504,75,-0.45,39.64,76.3,14.16
Upernavik,6,GL,1589680505,97,72.79,-56.15,29.32,9.19
Xining,0,CN,1589680505,30,36.62,101.77,61.84,2.04
Airai,28,TL,1589680505,84,-8.93,125.41,71.4,5.5
Morón,0,AR,1589680213,50,-34.65,-58.62,71.01,1.99
Tahlequah,90,US,1589680505,93,35.92,-94.97,70.0,4.25
Puerto Cabezas,45,NI,1589680506,84,14.04,-83.39,80.24,6.13
Lerwick,40,GB,1589680506,70,60.15,-1.15,42.8,23.04
Salalah,41,OM,1589680506,79,17.02,54.09,82.04,5.99
Talnakh,75,RU,1589680506,93,69.49,88.4,37.4,20.13
Komsomolets,100,KZ,1589680506,77,53.75,62.07,51.96,8.46
Kumluca,0,TR,1589680507,31,36.37,30.29,84.85,10.4
Dandong,100,CN,1589680507,92,40.13,124.39,58.96,7.43
Digha,91,IN,1589680507,70,21.68,87.55,86.52,13.0
Saint-Augustin,45,CA,1589680507,87,51.23,-58.65,34.81,2.66
Maltahöhe,0,NA,1589680508,35,-24.83,16.98,57.54,6.22
Marabu,75,MY,1589680508,89,4.41,114.01,84.2,3.36
General Roca,98,AR,1589680502,52,-39.03,-67.58,68.0,8.05
Córdoba,0,AR,1589680228,58,-31.41,-64.18,70.0,3.36
Stornoway,100,GB,1589680509,93,58.21,-6.39,48.99,6.93
Muros,0,ES,1589680509,74,42.78,-9.06,55.0,1.99
Mahébourg,20,MU,1589680509,94,-20.41,57.7,69.8,4.7
Tūkrah,0,LY,1589680510,30,32.53,20.58,78.94,6.58
Wajir,0,KE,1589680510,80,1.75,40.06,74.35,10.49
Bagamoyo,1,TZ,1589680510,90,-6.43,38.9,70.3,6.67
Villa Carlos Paz,0,AR,1589680510,58,-31.42,-64.5,70.0,3.36
Hobyo,0,SO,1589680510,75,5.35,48.53,82.15,22.15
Rocha,0,UY,1589680511,58,-34.48,-54.33,65.52,13.94
Warrnambool,0,AU,1589680511,77,-38.38,142.48,55.99,4.97
Piaçabuçu,14,BR,1589680511,84,-10.41,-36.43,76.6,4.9
Ossora,96,RU,1589680511,96,59.24,163.07,33.62,3.58
Bougouni,86,ML,1589680512,47,11.42,-7.48,86.0,5.79
Severo-Kuril'sk,100,RU,1589680512,90,50.68,156.12,35.71,16.44
Saint George,1,US,1589680390,14,37.1,-113.58,88.0,9.17
Chu,81,KZ,1589680512,83,43.6,73.76,60.69,7.4
Cabedelo,75,BR,1589680512,94,-6.98,-34.83,77.0,3.36
Bernau bei Berlin,100,DE,1589680513,73,52.68,13.59,51.01,1.99
Thinadhoo,91,MV,1589680513,75,0.53,72.93,85.26,20.22
Henties Bay,0,NA,1589680513,55,-22.12,14.28,64.51,3.6
Mmabatho,0,ZA,1589680514,39,-25.85,25.63,54.01,11.86
Maracaçumé,99,BR,1589680514,94,-2.04,-45.96,74.25,2.51
Shyroke,100,UA,1589680514,75,47.69,33.26,44.6,4.47
Annāmalainagar,90,IN,1589680514,70,11.4,79.73,86.68,5.14
Cedral,0,MX,1589680515,16,23.8,-100.73,76.12,6.44
Portobelo,94,PA,1589680515,88,9.55,-79.65,82.4,4.7
Esso,94,RU,1589680515,84,55.93,158.7,35.58,2.8
Baruun-Urt,100,MN,1589680515,49,46.68,113.28,50.58,15.08
Pueblo Bello,100,CO,1589680516,93,8.2,-76.53,77.88,1.28
Noshiro,75,JP,1589680516,93,40.2,140.02,60.8,2.24
Narsaq,100,GL,1589680516,24,60.92,-46.05,46.4,18.34
Kruisfontein,0,ZA,1589680517,48,-34.0,24.73,50.11,4.45
Menongue,0,AO,1589680517,60,-14.66,17.69,53.58,3.02
Vanavara,100,RU,1589680517,41,60.34,102.28,53.08,4.27
Taltal,46,CL,1589680517,77,-25.4,-70.48,59.43,3.58
Sinor,21,IN,1589680518,48,21.92,73.33,85.8,4.38
Waipawa,42,NZ,1589680518,87,-41.41,175.52,57.2,12.75
Lorengau,13,PG,1589680518,72,-2.02,147.27,86.43,10.71
Listvyanka,100,RU,1589680519,54,51.85,104.87,46.4,1.48
Grand Gaube,1,MU,1589680519,83,-20.01,57.66,72.0,1.99
Pecos,1,US,1589680519,25,31.42,-103.49,86.0,12.75
Clyde River,1,CA,1589680519,79,70.47,-68.59,21.2,8.05
Acapulco de Juárez,20,MX,1589680454,66,16.86,-99.89,84.2,4.7
Santa Maria,0,BR,1589680520,78,-29.68,-53.81,54.72,3.98
Fortuna,90,US,1589680520,93,40.6,-124.16,60.01,5.82
Kashan,0,IR,1589680521,22,33.98,51.44,75.04,2.66
Labuhan,7,ID,1589680521,78,-6.88,112.21,83.16,7.11
Comodoro Rivadavia,29,AR,1589680521,47,-45.87,-67.5,55.4,29.97
Tuatapere,0,NZ,1589680521,61,-46.13,167.68,56.79,0.54
Syców,24,PL,1589680521,93,51.31,17.72,45.0,2.24
Cayenne,90,GF,1589680522,83,4.93,-52.33,80.6,6.93
Nanortalik,100,GL,1589680522,81,60.14,-45.24,39.9,6.06
Kyabé,42,TD,1589680522,66,9.45,18.94,80.2,4.79
Oranjemund,0,NA,1589680523,45,-28.55,16.43,61.07,4.27
Gorontalo,3,ID,1589680523,56,0.54,123.06,90.37,3.11
Ulkan,30,RU,1589680523,34,57.24,107.32,59.29,1.07
Terrace,90,CA,1589680368,39,54.52,-128.6,66.2,6.93
Vila,0,PT,1589680524,89,42.03,-8.16,51.01,4.5
Tianpeng,49,CN,1589680524,1,30.99,103.94,86.0,4.41
Beyneu,100,KZ,1589680524,60,45.32,55.2,66.63,10.13
Souillac,20,MU,1589680524,94,-20.52,57.52,69.8,4.7
Belmonte,75,BR,1589680525,94,-15.86,-38.88,73.4,1.12
Turukhansk,100,RU,1589680525,85,65.82,87.98,45.52,11.65
Bulakamba,38,ID,1589680525,72,-6.87,108.96,84.83,6.67
Zhuhai,20,CN,1589680525,79,22.28,113.57,88.0,5.82
Kärdla,100,EE,1589680526,93,59.0,22.75,36.0,3.0
Departamento de Maldonado,0,UY,1589680526,60,-34.67,-54.92,69.01,13.87
Amboise,0,FR,1589680526,81,47.41,0.98,50.0,4.7
Rome,1,US,1589680327,66,43.21,-75.46,55.4,5.82
Prince Rupert,1,CA,1589680527,63,54.32,-130.32,60.8,5.82
Banjar,1,ID,1589680527,60,-8.19,114.97,88.48,1.9
Opuwo,0,NA,1589680527,33,-18.06,13.84,60.57,7.27
Inverness,100,GB,1589680527,82,57.48,-4.22,50.0,1.99
Mandalgovi,0,MN,1589680528,56,45.76,106.27,43.77,23.98
Siedlce,0,PL,1589680528,81,52.17,22.29,39.0,8.3
Maragheh,71,IR,1589680528,44,37.39,46.24,58.95,0.69
Taoudenni,0,ML,1589680528,17,22.68,-3.98,77.95,11.03
Tura,1,IN,1589680528,82,25.52,90.22,80.26,5.28
São Félix do Xingu,99,BR,1589680529,94,-6.64,-51.99,72.99,1.59
Blagoveshchensk,20,RU,1589680529,41,50.27,127.53,59.0,13.42
Lichuan,100,CN,1589680529,66,30.3,108.85,72.54,1.86
Itoman,75,JP,1589680530,94,26.12,127.67,82.4,16.11
Bengkulu,100,ID,1589680256,67,-3.8,102.27,84.85,2.44
Meulaboh,100,ID,1589680531,95,4.14,96.13,75.24,7.63
San Cristobal,100,VE,1589680531,86,7.77,-72.22,67.23,3.51
Saldanha,0,ZA,1589680531,81,-33.01,17.94,48.2,3.36
Lompoc,1,US,1589680367,63,34.64,-120.46,64.4,13.87
Bétaré Oya,100,CM,1589680531,92,5.6,14.08,68.31,0.16
Batagay-Alyta,75,RU,1589680532,84,67.8,130.41,35.92,2.08
Glenluce,100,GB,1589680532,91,54.88,-4.81,50.0,3.0
Sola,96,VU,1589680532,84,-13.88,167.55,80.4,18.16
Dabola,85,GN,1589680533,73,10.75,-11.12,79.14,4.23
Sinnamary,99,GF,1589680533,86,5.38,-52.95,77.85,11.79
Klaksvík,100,FO,1589680533,80,62.23,-6.59,39.2,12.75
Cidreira,0,BR,1589680533,71,-30.18,-50.21,61.68,12.39
Barcelos,0,PT,1589680534,93,41.54,-8.62,61.0,8.05
Vardø,100,NO,1589680534,96,70.37,31.11,32.94,4.34
Kudahuvadhoo,100,MV,1589680534,78,2.67,72.89,85.21,17.67
Chāndūr Bāzār,1,IN,1589680534,25,21.24,77.75,96.91,0.92
Obo,89,CF,1589680535,97,5.4,26.49,68.76,3.53
Persianovskiy,0,RU,1589680535,93,47.51,40.11,44.01,2.24
Flinders,39,AU,1589680535,59,-34.58,150.86,66.99,5.82
Nara,75,JP,1589680464,73,34.69,135.8,73.0,3.36
Marsabit,65,KE,1589680535,100,2.33,37.99,62.8,15.19
Guarda,0,PT,1589680254,77,40.54,-7.27,54.0,5.01
Sept-Îles,75,CA,1589680381,61,50.2,-66.38,50.0,2.95
Blackfoot,20,US,1589680536,36,43.19,-112.34,62.6,5.82
Shingū,40,JP,1589680536,78,33.73,135.98,71.6,12.75
Roald,100,NO,1589680536,86,62.58,6.13,41.0,21.92
Caravelas,100,BR,1589680537,93,-17.71,-39.25,73.47,15.01
Stara Vyzhivka,0,UA,1589680537,90,51.44,24.44,39.9,7.2
Nantucket,1,US,1589680269,87,41.28,-70.1,50.0,8.05
Porto Santo,40,PT,1589680538,51,33.07,-16.34,62.6,6.93
Hasaki,20,JP,1589680538,69,35.73,140.83,80.01,2.24
Nuuk,12,GL,1589680538,93,64.18,-51.72,35.6,19.46
Sol'vychegodsk,100,RU,1589680538,76,61.33,46.92,40.3,4.41
Illescas,20,ES,1589680539,62,40.12,-3.85,55.99,5.82
Savannah Bight,62,HN,1589680539,82,16.45,-85.85,83.86,25.46
Salaga,96,GH,1589680539,79,8.55,-0.52,81.09,5.99
Mikkeli,90,FI,1589680539,100,61.69,27.27,35.6,9.17
Cairns,40,AU,1589680517,54,-16.92,145.77,80.6,19.46
Balkanabat,0,TM,1589680540,33,39.51,54.37,73.4,1.03
Khanbari,9,NP,1589680540,47,27.37,87.2,80.53,1.54
Margate,42,GB,1589680356,55,51.38,1.39,50.0,7.38
Yar-Sale,100,RU,1589680541,97,66.83,70.83,34.56,2.95
Dongzhen,79,CN,1589680541,72,22.38,110.94,83.59,6.24
Touros,20,BR,1589680541,100,-5.2,-35.46,73.4,3.36
Shaturtorf,90,RU,1589680542,91,55.57,39.42,42.06,8.88
Novomykolayivka,0,UA,1589680542,73,47.98,35.91,46.99,6.82
Laguna,75,US,1589680542,46,38.42,-121.42,72.0,17.22
Eyrarbakki,4,IS,1589680542,56,63.86,-21.15,41.0,11.41
Voh,67,NC,1589680543,64,-20.97,164.7,78.62,9.37
Bereda,65,ES,1589680543,100,43.27,-7.54,45.0,1.01
East London,42,ZA,1589680543,41,-33.02,27.91,58.89,6.08
Asău,17,RO,1589680544,85,46.43,26.4,48.0,3.47
Humaitá,82,BR,1589680544,95,-7.51,-63.02,75.2,1.36
Socorro,5,US,1589680545,9,31.65,-106.3,91.4,10.29
Ambilobe,0,MG,1589680545,92,-13.2,49.05,72.09,2.68
Singaraja,7,ID,1589680545,63,-8.11,115.09,86.58,0.45
Lavrentiya,1,RU,1589680545,96,65.58,-171.0,31.98,8.01
Luanda,75,AO,1589680388,88,-8.84,13.23,78.8,3.36
Mount Gambier,1,AU,1589680546,62,-37.83,140.77,57.2,6.93
Aljezur,0,PT,1589680546,95,37.32,-8.8,62.01,4.45
Bawku,74,GH,1589680546,54,11.06,-0.24,86.59,10.65
Abu Samrah,0,SY,1589680546,30,35.3,37.18,80.22,8.84
Carbonia,20,IT,1589680547,87,39.17,8.52,64.99,2.24
Chifeng,0,CN,1589680452,27,42.27,118.96,60.93,12.21
Okitipupa,0,NG,1589680547,94,6.5,4.78,77.29,1.3
Korla,97,CN,1589680548,16,41.76,86.15,82.13,18.07
San Rafael,0,AR,1589680363,29,-34.62,-68.33,64.51,11.59
Ust-Maya,0,RU,1589680548,38,60.42,134.53,65.55,3.15
Parabel',11,RU,1589680548,66,58.7,81.48,57.96,4.7
Rawson,29,AR,1589680549,41,-43.3,-65.1,56.97,13.6
Philadelphia,75,US,1589680481,55,39.95,-75.16,69.8,9.17
Kaiwaka,82,NZ,1589680549,73,-36.17,174.45,64.0,1.01
Aksu,0,CN,1589680549,20,41.12,80.26,77.11,11.59
Pathein,89,MM,1589680549,55,16.78,94.73,90.07,5.59
Sitka,40,US,1589680550,59,57.05,-135.33,60.8,9.17
Bilma,0,NE,1589680550,11,18.69,12.92,84.04,9.08
Rodolfo Sánchez Taboada,2,MX,1589680550,80,31.72,-116.57,66.0,3.0
Maragogi,36,BR,1589680422,85,-9.01,-35.22,77.07,1.86
Shitanjing,0,CN,1589680551,32,39.23,106.34,55.4,21.59
Sabae,90,JP,1589680551,93,35.95,136.19,62.6,9.17
Barreiras,45,BR,1589680551,78,-12.15,-44.99,72.27,1.7
Chepareria,47,KE,1589680551,81,1.31,35.2,60.26,2.93
Shenjiamen,100,CN,1589680551,93,29.96,122.3,70.29,10.25
Freeport,1,US,1589680448,55,40.66,-73.58,64.4,6.93
Ilulissat,0,GL,1589680552,100,69.22,-51.1,30.2,3.36
Katobu,10,ID,1589680552,82,-4.94,122.53,83.68,7.78
Kukës,99,AL,1589680552,57,42.08,20.42,65.86,3.02
Anadyr,41,RU,1589680553,65,64.75,177.48,41.0,8.95
Roswell,1,US,1589680272,53,34.02,-84.36,75.2,3.36
Mountain Home,90,US,1589680439,16,43.13,-115.69,73.4,20.8
Puerto Escondido,62,MX,1589680320,68,15.85,-97.07,84.67,4.97
Ahipara,97,NZ,1589680553,65,-35.17,173.17,64.63,8.19
Beloha,8,MG,1589680554,83,-25.17,45.05,62.31,7.45
Payson,75,US,1589680554,28,40.04,-111.73,69.8,3.36
Kosonsoy,1,UZ,1589680554,71,41.26,71.55,57.2,4.7
Skjervøy,100,NO,1589680555,84,70.03,20.97,35.62,2.17
St-Jean-Port-Joli,78,CA,1589680555,59,47.22,-70.27,46.0,1.01
Mīnāb,0,IR,1589680555,88,27.15,57.08,75.2,4.7
Batemans Bay,0,AU,1589680529,59,-35.72,150.18,66.0,4.25
Wawa,47,NG,1589680556,64,9.9,4.42,82.44,5.01
Buraidah,0,SA,1589680556,36,26.33,43.98,75.2,6.93
Ixtapa,40,MX,1589680556,78,20.7,-105.2,77.0,10.29
Luganville,96,VU,1589680556,81,-15.53,167.17,78.67,10.51
Vostok,91,RU,1589680557,60,46.49,135.88,57.99,5.1
Ayan,94,RU,1589680557,83,56.45,138.17,36.54,11.12
Nong Ki,100,TH,1589680557,66,14.69,102.54,95.0,4.7
Ampanihy,8,MG,1589680557,91,-24.7,44.75,61.09,5.19
Mabaruma,100,GY,1589680558,96,8.2,-59.78,75.83,4.47
Hambantota,95,LK,1589680558,79,6.12,81.12,83.73,23.33
Labuan,75,MY,1589680558,84,5.28,115.24,86.0,3.36
Vila Velha,75,BR,1589680559,100,-20.33,-40.29,68.0,2.24
Byron Bay,75,AU,1589680559,93,-28.65,153.62,68.0,13.87
Malakal,84,SS,1589680468,56,9.53,31.66,81.86,1.57
Togur,0,RU,1589680559,63,58.36,82.83,58.06,3.53
Jiexiu,0,CN,1589680559,18,37.02,111.91,77.94,18.66
Çermik,39,TR,1589680560,40,38.14,39.45,69.8,4.7
Harrison,90,US,1589680560,83,30.41,-89.04,77.0,13.87
Tual,3,ID,1589680560,81,-5.67,132.75,83.73,22.66
Dukat,100,RU,1589680560,98,62.55,155.55,32.27,7.78
Waggaman,40,US,1589680561,83,29.92,-90.21,78.01,8.05
Bambanglipuro,25,ID,1589680561,75,-7.95,110.28,84.67,12.77
Tomohon,40,ID,1589680561,79,1.33,124.84,84.2,2.24
Praia da Vitória,40,PT,1589680561,88,38.73,-27.07,66.2,10.76
Zhezkazgan,55,KZ,1589680562,59,47.8,67.71,63.39,11.34
Novaya Ladoga,100,RU,1589680563,94,60.1,32.3,35.01,15.3
Collie,100,AU,1589680563,47,-33.37,116.15,61.0,3.11
Gondanglegi,0,ID,1589680563,76,-7.75,112.01,83.97,11.83
Naze,75,JP,1589680564,88,28.37,129.48,78.8,12.75
Puerto Baquerizo Moreno,35,EC,1589680564,85,-0.9,-89.6,74.43,6.11
Khandyga,100,RU,1589680564,57,62.67,135.6,54.39,2.98
Taunggyi,50,MM,1589680372,41,20.78,97.03,79.99,5.32
Fairlie,100,GB,1589680566,90,55.76,-4.86,50.0,3.0
Oktyabr'skoye,100,RU,1589680566,100,43.06,44.74,51.8,6.71
La Ronge,75,CA,1589680486,62,55.1,-105.28,59.0,5.82
Dunkirk,0,FR,1589680567,84,51.05,2.37,46.0,6.73
Matara,86,LK,1589680567,84,5.95,80.54,82.53,15.84
Wonthaggi,1,AU,1589680567,78,-38.6,145.59,64.0,5.53
Dāmghān,0,IR,1589680567,34,36.17,54.35,64.24,1.19
Dingle,48,PH,1589680567,62,11.0,122.67,89.87,2.68
Umluj,0,SA,1589680568,38,25.02,37.27,87.6,7.18
Hammerfest,75,NO,1589680568,97,70.66,23.68,33.8,14.99
Susurluk,68,TR,1589680568,87,39.91,28.16,64.4,3.36
Kiunga,92,PG,1589680568,75,-6.12,141.29,84.16,4.92
Vadu Paşii,40,RO,1589680569,82,45.17,26.9,55.56,5.1
Forestville,1,US,1589680456,56,38.85,-76.88,71.6,5.82
São João do Piauí,41,BR,1589680569,75,-8.36,-42.25,72.99,1.68
San Roque,4,ES,1589680569,82,36.21,-5.38,60.8,6.93
Masalli,75,KR,1589680570,88,34.8,126.66,64.4,3.36
Takoradze,3,GH,1589680570,87,4.88,-1.76,80.73,8.28
Agüimes,75,ES,1589680570,68,27.91,-15.45,66.99,17.22
Vila Franca do Campo,75,PT,1589680570,93,37.72,-25.43,62.6,8.05
Great Falls,1,US,1589680278,31,47.5,-111.3,64.99,12.75
Atasū,75,KZ,1589680571,59,48.68,71.64,62.44,2.98
Weihai,74,CN,1589680571,86,37.5,122.11,59.05,4.38
Marsá Maţrūḩ,0,EG,1589680571,88,31.35,27.25,66.2,8.01
Muroto-misakicho,75,JP,1589680571,88,33.28,134.15,71.6,6.93
Nuevo Casas Grandes,0,MX,1589680572,20,30.42,-107.92,73.76,10.36
Pontianak,100,ID,1589680572,66,-0.03,109.33,88.29,2.1
Spirit River,75,CA,1589680572,29,55.78,-118.84,66.2,2.24
Naryan-Mar,100,RU,1589680573,71,67.67,53.09,41.14,7.38
Dzhubga,33,RU,1589680574,80,44.32,38.7,51.64,11.81
Bonthe,46,SL,1589680574,85,7.53,-12.51,81.12,9.48
Cabimas,100,VE,1589680574,73,10.39,-71.44,82.99,8.68
Carbondale,90,US,1589680574,78,37.73,-89.22,73.4,4.7
Pangnirtung,6,CA,1589680574,90,66.15,-65.71,27.64,2.44
Sobolevo,3,RU,1589680575,94,54.43,31.9,39.61,10.36
Derbent,100,RU,1589680575,81,42.07,48.29,62.01,21.7
Zhangaözen,94,KZ,1589680575,76,43.3,52.8,61.83,8.32
Husavik,90,IS,1589680575,74,66.04,-17.34,37.4,8.05
Kenai,1,US,1589680576,66,60.55,-151.26,55.4,16.11
Necochea,9,AR,1589680577,67,-38.55,-58.74,62.19,7.27
Muscat,0,OM,1589680451,79,23.61,58.59,84.2,6.93
Pangody,30,RU,1589680577,78,65.85,74.49,44.01,9.44
Galeana,6,MX,1589680577,34,24.83,-100.07,69.01,5.01
Goulburn,0,AU,1589680577,80,-34.75,149.72,59.0,4.65
Simbahan,98,PH,1589680578,74,6.3,120.58,84.79,6.04
Yangi Marg`ilon,0,UZ,1589680578,76,40.43,71.72,55.4,4.7
Kiama,32,AU,1589680578,59,-34.68,150.87,66.2,5.82
Leh,0,IN,1589680579,60,34.17,77.58,40.39,2.77
Killarney,100,IE,1589680579,86,52.05,-9.52,48.67,4.34
Faya,55,SA,1589680579,59,18.39,42.45,64.4,3.36
Pavlodar,32,KZ,1589680580,59,52.3,76.95,64.4,4.47
Cruzeiro do Sul,0,BR,1589680580,87,-29.51,-51.99,55.99,4.72
Arrondissement de Niort,0,FR,1589680580,73,46.33,-0.33,51.01,8.1
Arantāngi,100,IN,1589680580,62,10.17,78.98,87.98,6.96
Vilhena,100,BR,1589680505,92,-12.74,-60.15,67.41,2.19
Çanakkale Province,24,TR,1589680581,74,40.08,26.83,59.05,5.75
Inírida,4,CO,1589680581,96,3.87,-67.92,75.29,2.13
Port Blair,100,IN,1589680581,87,11.67,92.75,80.69,15.79
Bayan,100,CN,1589680582,36,46.08,127.4,77.0,15.79
Nicoya,97,CR,1589680582,85,10.15,-85.45,75.0,8.01
Chapulhuacán,18,MX,1589680582,66,21.17,-98.9,75.92,0.98
Bintulu,75,MY,1589680582,94,3.17,113.03,82.4,3.36
Inta,100,RU,1589680583,86,66.03,60.17,34.52,5.99
Puerto Madero,75,MX,1589680583,74,14.72,-92.42,84.2,6.93
Bom Jesus,5,BR,1589680583,80,-9.07,-44.36,73.27,1.61
Gopālpur,100,IN,1589680338,72,19.27,84.92,85.06,4.41
Ouro Fino,0,BR,1589680583,88,-22.28,-46.37,56.26,0.34
Richards Bay,0,ZA,1589680584,84,-28.78,32.04,59.31,5.53
Buncrana,100,IE,1589680584,94,55.13,-7.45,47.32,8.86
Harper,38,LR,1589680584,87,4.38,-7.72,80.2,6.96
Outlook,47,CA,1589680584,22,51.5,-107.05,72.0,8.99
Verāval,18,IN,1589680585,76,20.9,70.37,83.17,14.79
Marzuq,0,YE,1589680585,41,14.4,46.47,77.0,0.78
Lumberton,1,US,1589680585,69,34.62,-79.01,78.8,4.7
Havøysund,75,NO,1589680585,95,71.0,24.66,33.8,14.99
Kupang,4,ID,1589680585,63,-10.17,123.58,86.77,14.16
Warkworth,67,NZ,1589680586,73,-36.4,174.67,64.0,1.01
Christchurch,0,NZ,1589680382,66,-43.53,172.63,55.99,8.05
Boyuibe,0,BO,1589680586,54,-20.42,-63.28,58.01,4.29
Altus,1,US,1589680587,64,34.64,-99.33,71.6,4.0
Pacific Grove,1,US,1589680321,52,36.62,-121.92,69.8,10.29
Ponérihouen,86,NC,1589680587,70,-21.08,165.4,75.29,8.48
College,40,US,1589680525,24,64.86,-147.8,55.4,10.29
Eldorado,0,BR,1589680588,56,-23.79,-54.28,53.73,0.45
Corn Island,67,NI,1589680588,81,12.17,-83.04,83.44,9.69
Nelson Bay,65,AU,1589680589,60,-32.72,152.15,69.01,6.93
Manggar,100,ID,1589680589,91,-2.88,108.27,78.13,13.96
Ajdabiya,0,LY,1589680589,21,30.76,20.23,79.45,11.95
Stephenville,40,US,1589680589,88,32.22,-98.2,64.99,5.82
Abrau-Dyurso,0,RU,1589680590,93,44.69,37.59,46.4,6.71
Tobol,0,KZ,1589680590,85,52.68,62.58,56.37,7.58
Puqi,7,CN,1589680590,62,29.72,113.88,83.53,5.03
Tarko-Sale,94,RU,1589680590,85,64.92,77.78,48.99,11.77
Portland,90,US,1589680501,72,45.52,-122.68,64.4,8.86
São Gabriel da Cachoeira,56,BR,1589680592,97,-0.13,-67.09,74.28,1.66
Ulaanbaatar,20,MN,1589680531,39,47.91,106.88,44.6,20.13
Port Lincoln,2,AU,1589680592,47,-34.73,135.87,61.68,7.31
